 [{
         "id": "31698",
         "name": "Jagdalpur Airport",
         "city": "Jagdalpur",
         "latitude_deg": "19.07430077",
         "longitude_deg": "82.03679657",
         "iso_country": "IN",
         "iso_region": "IN-CT",
         "iataCode": "JGB"
     },
     {
         "id": "42723",
         "name": "Neyveli Airport",
         "city": "Neyveli",
         "latitude_deg": "11.61295605",
         "longitude_deg": "79.5273819",
         "iso_country": "IN",
         "iso_region": "IN-TN",
         "gps_code": "VONV",
         "iataCode": "NVY"
     },
     {
         "id": "32215",
         "name": "Rajouri Airport",
         "city": "Rajouri",
         "latitude_deg": "33.37789917",
         "longitude_deg": "74.31520081",
         "iso_country": "IN",
         "iso_region": "IN-JK",
         "iataCode": "RJI"
     },
     {
         "id": "32433",
         "name": "Tezu Airport",
         "city": "Tezu",
         "latitude_deg": "27.94120026",
         "longitude_deg": "96.13439941",
         "iso_country": "IN",
         "iso_region": "IN-AR",
         "gps_code": "VETJ",
         "iataCode": "TEI"
     },
     {
         "id": "314033",
         "name": "Osmanabad Airport",
         "city": "Osmanabad",
         "latitude_deg": "18.281",
         "longitude_deg": "76.0574",
         "iso_country": "IN",
         "iso_region": "IN-MM",
         "iataCode": "OMN"
     },
     {
         "id": "3288",
         "name": "Airport, Chorhata, REWA",
         "city": "Rewa",
         "latitude_deg": "24.503401",
         "longitude_deg": "81.220299",
         "iso_country": "IN",
         "iso_region": "IN-MP",
         "gps_code": "VA1G",
         "iataCode": "REW"
     },
     {
         "id": "3296",
         "name": "Diu Airport",
         "city": "Diu",
         "latitude_deg": "20.71310043",
         "longitude_deg": "70.9210968",
         "iso_country": "IN",
         "iso_region": "IN-GJ",
         "gps_code": "VA1P",
         "iataCode": "DIU"
     },
     {
         "id": "26431",
         "name": "Sardar Vallabhbhai Patel International Airport",
         "city": "Ahmedabad",
         "latitude_deg": "23.07719994",
         "longitude_deg": "72.63469696",
         "iso_country": "IN",
         "iso_region": "IN-GJ",
         "gps_code": "VAAH",
         "iataCode": "AMD"
     },
     {
         "id": "26432",
         "name": "Akola Airport",
         "city": "Akola",
         "latitude_deg": "20.698999",
         "longitude_deg": "77.058601",
         "iso_country": "IN",
         "iso_region": "IN-MM",
         "gps_code": "VAAK",
         "iataCode": "AKD"
     },
     {
         "id": "26433",
         "name": "Aurangabad Airport",
         "city": "Aurangabad",
         "latitude_deg": "19.86269951",
         "longitude_deg": "75.39810181",
         "iso_country": "IN",
         "iso_region": "IN-MM",
         "gps_code": "VAAU",
         "iataCode": "IXU"
     },
     {
         "id": "26434",
         "name": "Chhatrapati Shivaji International Airport",
         "city": "Mumbai",
         "latitude_deg": "19.08869934",
         "longitude_deg": "72.86789703",
         "iso_country": "IN",
         "iso_region": "IN-MM",
         "gps_code": "VABB",
         "iataCode": "BOM"
     },
     {
         "id": "26435",
         "name": "Bilaspur Airport",
         "city": "Bilaspur",
         "latitude_deg": "21.9884",
         "longitude_deg": "82.111",
         "iso_country": "IN",
         "iso_region": "IN-CT",
         "gps_code": "VEBU",
         "iataCode": "PAB"
     },
     {
         "id": "26436",
         "name": "Bhuj Airport",
         "city": "Bhuj",
         "latitude_deg": "23.28779984",
         "longitude_deg": "69.67019653",
         "iso_country": "IN",
         "iso_region": "IN-GJ",
         "gps_code": "VABJ",
         "iataCode": "BHJ"
     },
     {
         "id": "26437",
         "name": "Belgaum Airport",
         "city": "Belgaum",
         "latitude_deg": "15.85929966",
         "longitude_deg": "74.61830139",
         "iso_country": "IN",
         "iso_region": "IN-KA",
         "gps_code": "VOBM",
         "iataCode": "IXG"
     },
     {
         "id": "26438",
         "name": "Vadodara Airport",
         "city": "Vadodara",
         "latitude_deg": "22.336201",
         "longitude_deg": "73.226303",
         "iso_country": "IN",
         "iso_region": "IN-GJ",
         "gps_code": "VABO",
         "iataCode": "BDQ"
     },
     {
         "id": "26439",
         "name": "Raja Bhoj International Airport",
         "city": "Bhopal",
         "latitude_deg": "23.28750038",
         "longitude_deg": "77.33740234",
         "iso_country": "IN",
         "iso_region": "IN-MP",
         "gps_code": "VABP",
         "iataCode": "BHO"
     },
     {
         "id": "26440",
         "name": "Bhavnagar Airport",
         "city": "Bhubaneswar",
         "latitude_deg": "21.75219917",
         "longitude_deg": "72.18520355",
         "iso_country": "IN",
         "iso_region": "IN-GJ",
         "gps_code": "VABV",
         "iataCode": "BHU"
     },
     {
         "id": "26441",
         "name": "Daman Airport",
         "city": "Daman",
         "latitude_deg": "20.43440056",
         "longitude_deg": "72.84320068",
         "iso_country": "IN",
         "iso_region": "IN-DD",
         "gps_code": "VADN",
         "iataCode": "NMB"
     },
     {
         "id": "26443",
         "name": "Guna Airport",
         "city": "Guna",
         "latitude_deg": "24.654699",
         "longitude_deg": "77.347298",
         "iso_country": "IN",
         "iso_region": "IN-MP",
         "gps_code": "VAGN",
         "iataCode": "GUX"
     },
     {
         "id": "26444",
         "name": "Dabolim Airport",
         "city": "Goa",
         "latitude_deg": "15.38080025",
         "longitude_deg": "73.83139801",
         "iso_country": "IN",
         "iso_region": "IN-GA",
         "gps_code": "VOGO",
         "iataCode": "GOI"
     },
     {
         "id": "26445",
         "name": "Hubli Airport",
         "city": "Hubli",
         "latitude_deg": "15.36170006",
         "longitude_deg": "75.0848999",
         "iso_country": "IN",
         "iso_region": "IN-KA",
         "gps_code": "VOHB",
         "iataCode": "HBX"
     },
     {
         "id": "26446",
         "name": "Devi Ahilyabai Holkar Airport",
         "city": "Indore ",
         "latitude_deg": "22.72179985",
         "longitude_deg": "75.80110168",
         "iso_country": "IN",
         "iso_region": "IN-MP",
         "gps_code": "VAID",
         "iataCode": "IDR"
     },
     {
         "id": "26447",
         "name": "Jabalpur Airport",
         "city": "Jabalpur",
         "latitude_deg": "23.17779922",
         "longitude_deg": "80.05200195",
         "iso_country": "IN",
         "iso_region": "IN-MP",
         "gps_code": "VAJB",
         "iataCode": "JLR"
     },
     {
         "id": "26448",
         "name": "Jamnagar Airport",
         "city": "Jamnagar",
         "latitude_deg": "22.46549988",
         "longitude_deg": "70.01260376",
         "iso_country": "IN",
         "iso_region": "IN-GJ",
         "gps_code": "VAJM",
         "iataCode": "JGA"
     },
     {
         "id": "26449",
         "name": "Kandla Airport",
         "city": "Kandla",
         "latitude_deg": "23.1127",
         "longitude_deg": "70.100304",
         "iso_country": "IN",
         "iso_region": "IN-GJ",
         "gps_code": "VAKE",
         "iataCode": "IXY"
     },
     {
         "id": "26450",
         "name": "Khajuraho Airport",
         "city": "Khajuraho",
         "latitude_deg": "24.81719971",
         "longitude_deg": "79.91860199",
         "iso_country": "IN",
         "iso_region": "IN-MP",
         "gps_code": "VAKJ",
         "iataCode": "HJR"
     },
     {
         "id": "26451",
         "name": "Kolhapur Airport",
         "city": "Kolhapur",
         "latitude_deg": "16.66469955",
         "longitude_deg": "74.28939819",
         "iso_country": "IN",
         "iso_region": "IN-MM",
         "gps_code": "VAKP",
         "iataCode": "KLH"
     },
     {
         "id": "26452",
         "name": "Keshod Airport",
         "city": "Keshod",
         "latitude_deg": "21.31710052",
         "longitude_deg": "70.270401",
         "iso_country": "IN",
         "iso_region": "IN-GJ",
         "gps_code": "VAKS",
         "iataCode": "IXK"
     },
     {
         "id": "30180",
         "name": "Nanded Airport",
         "city": "Nanded",
         "latitude_deg": "19.18330002",
         "longitude_deg": "77.3167038",
         "iso_country": "IN",
         "iso_region": "IN-MM",
         "gps_code": "VAND",
         "iataCode": "NDC"
     },
     {
         "id": "26453",
         "name": "Nagpur International Airport",
         "city": "Nagpur",
         "latitude_deg": "21.09219933",
         "longitude_deg": "79.04720306",
         "iso_country": "IN",
         "iso_region": "IN-MM",
         "gps_code": "VANP",
         "iataCode": "NAG"
     },
     {
         "id": "3301",
         "name": "Gandhinagar Airport",
         "city": "Nasik",
         "latitude_deg": "20.119101",
         "longitude_deg": "73.912903",
         "iso_country": "IN",
         "iso_region": "IN-MM",
         "gps_code": "VAOZ",
         "iataCode": "ISK"
     },
     {
         "id": "26455",
         "name": "Lohegaon Airport",
         "city": "Pune",
         "latitude_deg": "18.58209991",
         "longitude_deg": "73.91970062",
         "iso_country": "IN",
         "iso_region": "IN-MM",
         "gps_code": "VAPO",
         "iataCode": "PNQ"
     },
     {
         "id": "26456",
         "name": "Porbandar Airport",
         "city": "Porbandar",
         "latitude_deg": "21.64870071",
         "longitude_deg": "69.65720367",
         "iso_country": "IN",
         "iso_region": "IN-GJ",
         "gps_code": "VAPR",
         "iataCode": "PBD"
     },
     {
         "id": "26457",
         "name": "Ratnagiri Airport",
         "city": "Ratnagiri",
         "latitude_deg": "17.013599",
         "longitude_deg": "73.327797",
         "iso_country": "IN",
         "iso_region": "IN-MM",
         "gps_code": "VARG",
         "iataCode": "RTC"
     },
     {
         "id": "26458",
         "name": "Rajkot Airport",
         "city": "Rajkot",
         "latitude_deg": "22.30920029",
         "longitude_deg": "70.77950287",
         "iso_country": "IN",
         "iso_region": "IN-GJ",
         "gps_code": "VARK",
         "iataCode": "RAJ"
     },
     {
         "id": "26459",
         "name": "Raipur Airport",
         "city": "Raipur",
         "latitude_deg": "21.180401",
         "longitude_deg": "81.7388",
         "iso_country": "IN",
         "iso_region": "IN-CT",
         "gps_code": "VERP",
         "iataCode": "RPR"
     },
     {
         "id": "26460",
         "name": "Sholapur Airport",
         "city": "Sholapur",
         "latitude_deg": "17.62800026",
         "longitude_deg": "75.93479919",
         "iso_country": "IN",
         "iso_region": "IN-MM",
         "gps_code": "VASL",
         "iataCode": "SSE"
     },
     {
         "id": "26461",
         "name": "Surat Airport",
         "city": "Surat",
         "latitude_deg": "21.1140995",
         "longitude_deg": "72.7417984",
         "iso_country": "IN",
         "iso_region": "IN-GJ",
         "gps_code": "VASU",
         "iataCode": "STV"
     },
     {
         "id": "26462",
         "name": "Maharana Pratap Airport",
         "city": "Udaipur",
         "latitude_deg": "24.61770058",
         "longitude_deg": "73.89610291",
         "iso_country": "IN",
         "iso_region": "IN-RJ",
         "gps_code": "VAUD",
         "iataCode": "UDR"
     },
     {
         "id": "26488",
         "name": "Along Airport",
         "city": "Along",
         "latitude_deg": "28.1753006",
         "longitude_deg": "94.80200195",
         "iso_country": "IN",
         "iso_region": "IN-AR",
         "gps_code": "VEAN",
         "iataCode": "IXV"
     },
     {
         "id": "26489",
         "name": "Agartala Airport",
         "city": "Agartala",
         "latitude_deg": "23.88699913",
         "longitude_deg": "91.24040222",
         "iso_country": "IN",
         "iso_region": "IN-TR",
         "gps_code": "VEAT",
         "iataCode": "IXA"
     },
     {
         "id": "26491",
         "name": "Bagdogra Airport",
         "city": "Bagdogra",
         "latitude_deg": "26.68120003",
         "longitude_deg": "88.32859802",
         "iso_country": "IN",
         "iso_region": "IN-WB",
         "gps_code": "VEBD",
         "iataCode": "IXB"
     },
     {
         "id": "32206",
         "name": "Balurghat Airport",
         "city": "Balurghat",
         "latitude_deg": "25.26169968",
         "longitude_deg": "88.79560089",
         "iso_country": "IN",
         "iso_region": "IN-WB",
         "gps_code": "VEBG",
         "iataCode": "RGH"
     },
     {
         "id": "26492",
         "name": "Shillong Airport",
         "city": "Shillong",
         "latitude_deg": "25.70359993",
         "longitude_deg": "91.97869873",
         "iso_country": "IN",
         "iso_region": "IN-ML",
         "gps_code": "VEBI",
         "iataCode": "SHL"
     },
     {
         "id": "26494",
         "name": "Biju Patnaik Airport",
         "city": "Bhubaneswar",
         "latitude_deg": "20.24440002",
         "longitude_deg": "85.81780243",
         "iso_country": "IN",
         "iso_region": "IN-OR",
         "gps_code": "VEBS",
         "iataCode": "BBI"
     },
     {
         "id": "26496",
         "name": "Netaji Subhash Chandra Bose International Airport",
         "city": "Kolkata",
         "latitude_deg": "22.65469933",
         "longitude_deg": "88.44670105",
         "iso_country": "IN",
         "iso_region": "IN-WB",
         "gps_code": "VECC",
         "iataCode": "CCU"
     },
     {
         "id": "26497",
         "name": "Cooch Behar Airport",
         "city": "Cooch Behar",
         "latitude_deg": "26.33049965",
         "longitude_deg": "89.46720123",
         "iso_country": "IN",
         "iso_region": "IN-WB",
         "gps_code": "VECO",
         "iataCode": "COH"
     },
     {
         "id": "26498",
         "name": "Dhanbad Airport",
         "city": "Dhanbad",
         "latitude_deg": "23.83399963",
         "longitude_deg": "86.4253006",
         "iso_country": "IN",
         "iso_region": "IN-BR",
         "gps_code": "VEDB",
         "iataCode": "DBD"
     },

     {
         "id": "44474",
         "name": "Deparizo Airport",
         "city": "Daporijo",
         "latitude_deg": "27.98550034",
         "longitude_deg": "94.22280121",
         "iso_country": "IN",
         "iso_region": "IN-AR",
         "gps_code": "VEDZ",
         "iataCode": "DEP"
     },
     {
         "id": "26500",
         "name": "Gorakhpur Airport",
         "city": "Gorakhpur",
         "latitude_deg": "26.73970032",
         "longitude_deg": "83.4496994",
         "iso_country": "IN",
         "iso_region": "IN-UP",
         "gps_code": "VEGK",
         "iataCode": "GOP"
     },
     {
         "id": "26501",
         "name": "Borjhar Airport",
         "city": "Guwahati",
         "latitude_deg": "26.10610008",
         "longitude_deg": "91.58589935",
         "iso_country": "IN",
         "iso_region": "IN-AS",
         "gps_code": "VEGT",
         "iataCode": "GAU"
     },
     {
         "id": "26502",
         "name": "Gaya Airport",
         "city": "Gaya",
         "latitude_deg": "24.74430084",
         "longitude_deg": "84.95120239",
         "iso_country": "IN",
         "iso_region": "IN-BR",
         "gps_code": "VEGY",
         "iataCode": "GAY"
     },
     {
         "id": "26504",
         "name": "Imphal Airport",
         "city": "Imphal",
         "latitude_deg": "24.76000023",
         "longitude_deg": "93.896698",
         "iso_country": "IN",
         "iso_region": "IN-MN",
         "gps_code": "VEIM",
         "iataCode": "IMF"
     },
     {
         "id": "32183",
         "name": "Jeypore Airport",
         "city": "Jeypore",
         "latitude_deg": "18.87999916",
         "longitude_deg": "82.55200195",
         "iso_country": "IN",
         "iso_region": "IN-OR",
         "gps_code": "VEJP",
         "iataCode": "PYB"
     },
     {
         "id": "26506",
         "name": "Sonari Airport",
         "city": "Jamshedpur",
         "latitude_deg": "22.8132",
         "longitude_deg": "86.1688",
         "iso_country": "IN",
         "iso_region": "IN-JH",
         "gps_code": "VEJS",
         "iataCode": "IXW"
     },
     {
         "id": "26507",
         "name": "Jorhat Airport",
         "city": "Jorhat",
         "latitude_deg": "26.73150063",
         "longitude_deg": "94.17549896",
         "iso_country": "IN",
         "iso_region": "IN-AS",
         "gps_code": "VEJT",
         "iataCode": "JRH"
     },
     {
         "id": "30005",
         "name": "Kamalpur Airport",
         "city": "Kamalpur",
         "latitude_deg": "24.13170052",
         "longitude_deg": "91.81420135",
         "iso_country": "IN",
         "iso_region": "IN-TR",
         "gps_code": "VEKM",
         "iataCode": "IXQ"
     },
     {
         "id": "26508",
         "name": "Kailashahar Airport",
         "city": "Kailashahar",
         "latitude_deg": "24.30820084",
         "longitude_deg": "92.00720215",
         "iso_country": "IN",
         "iso_region": "IN-TR",
         "gps_code": "VEKR",
         "iataCode": "IXH"
     },
     {
         "id": "26509",
         "name": "Silchar Airport",
         "city": "Kumbhirgram",
         "latitude_deg": "24.91290092",
         "longitude_deg": "92.97869873",
         "iso_country": "IN",
         "iso_region": "IN-AS",
         "gps_code": "VEKU",
         "iataCode": "IXS"
     },
     {
         "id": "31691",
         "name": "Khowai Airport",
         "city": "Khowai",
         "latitude_deg": "24.061899",
         "longitude_deg": "91.603897",
         "iso_country": "IN",
         "iso_region": "IN-TR",
         "gps_code": "VEKW",
         "iataCode": "IXN"
     },
     {
         "id": "26510",
         "name": "Lengpui Airport",
         "city": "Aizawl",
         "latitude_deg": "23.84059906",
         "longitude_deg": "92.61969757",
         "iso_country": "IN",
         "iso_region": "IN-MZ",
         "gps_code": "VELP",
         "iataCode": "AJL"
     },
     {
         "id": "26511",
         "name": "North Lakhimpur Airport",
         "city": "Lilabari",
         "latitude_deg": "27.2954998",
         "longitude_deg": "94.09760284",
         "iso_country": "IN",
         "iso_region": "IN-AS",
         "gps_code": "VELR",
         "iataCode": "IXI"
     },
     {
         "id": "31799",
         "name": "Malda Airport",
         "city": "Malda",
         "latitude_deg": "25.033001",
         "longitude_deg": "88.133003",
         "iso_country": "IN",
         "iso_region": "IN-WB",
         "gps_code": "VEMH",
         "iataCode": "LDA"
     },
     {
         "id": "26512",
         "name": "Dibrugarh Airport",
         "city": "Dibrugarh",
         "latitude_deg": "27.48390007",
         "longitude_deg": "95.01689911",
         "iso_country": "IN",
         "iso_region": "IN-AS",
         "gps_code": "VEMN",
         "iataCode": "DIB"
     },
     {
         "id": "26513",
         "name": "Dimapur Airport",
         "city": "Dimapur",
         "latitude_deg": "25.88389969",
         "longitude_deg": "93.77110291",
         "iso_country": "IN",
         "iso_region": "IN-NL",
         "gps_code": "VEMR",
         "iataCode": "DMU"
     },
     {
         "id": "26514",
         "name": "Muzaffarpur Airport",
         "city": "Muzaffarpur",
         "latitude_deg": "26.11910057",
         "longitude_deg": "85.31369781",
         "iso_country": "IN",
         "iso_region": "IN-BR",
         "gps_code": "VEMZ",
         "iataCode": "MZU"
     },
     {
         "id": "31692",
         "name": "Pasighat Airport",
         "city": "Pasighat",
         "latitude_deg": "28.06609917",
         "longitude_deg": "95.33560181",
         "iso_country": "IN",
         "iso_region": "IN-AR",
         "gps_code": "VEPG",
         "iataCode": "IXT"
     },
     {
         "id": "26517",
         "name": "Lok Nayak Jayaprakash Airport",
         "city": "Patna",
         "latitude_deg": "25.59129906",
         "longitude_deg": "85.08799744",
         "iso_country": "IN",
         "iso_region": "IN-BR",
         "gps_code": "VEPT",
         "iataCode": "PAT"
     },
     {
         "id": "26519",
         "name": "Birsa Munda Airport",
         "city": "Ranchi",
         "latitude_deg": "23.31430054",
         "longitude_deg": "85.32170105",
         "iso_country": "IN",
         "iso_region": "IN-JH",
         "gps_code": "VERC",
         "iataCode": "IXR"
     },
     {
         "id": "26520",
         "name": "Rourkela Airport",
         "city": "Rourkela",
         "latitude_deg": "22.256701",
         "longitude_deg": "84.814598",
         "iso_country": "IN",
         "iso_region": "IN-OR",
         "gps_code": "VERK",
         "iataCode": "RRK"
     },
     {
         "id": "30356",
         "name": "Rupsi Airport",
         "city": "Rupsi",
         "latitude_deg": "26.13969994",
         "longitude_deg": "89.91000366",
         "iso_country": "IN",
         "iso_region": "IN-AS",
         "gps_code": "VERU",
         "iataCode": "RUP"
     },
     {
         "id": "26521",
         "name": "Tezpur Airport",
         "city": "Tezpur",
         "latitude_deg": "26.70910072",
         "longitude_deg": "92.78469849",
         "iso_country": "IN",
         "iso_region": "IN-AS",
         "gps_code": "VETZ",
         "iataCode": "TEZ"
     },
     {
         "id": "26523",
         "name": "Vishakhapatnam Airport",
         "city": "Vishakhapatnam",
         "latitude_deg": "17.72120094",
         "longitude_deg": "83.22450256",
         "iso_country": "IN",
         "iso_region": "IN-AP",
         "gps_code": "VOVZ",
         "iataCode": "VTZ"
     },
     {
         "id": "26524",
         "name": "Zero Airport",
         "city": "Zero",
         "latitude_deg": "27.588301",
         "longitude_deg": "93.828102",
         "iso_country": "IN",
         "iso_region": "IN-AR",
         "gps_code": "VEZO",
         "iataCode": "ZER"
     },
     {
         "id": "26537",
         "name": "Agra Airport",
         "city": "Agra",
         "latitude_deg": "27.15579987",
         "longitude_deg": "77.96089935",
         "iso_country": "IN",
         "iso_region": "IN-UP",
         "gps_code": "VIAG",
         "iataCode": "AGR"
     },
     {
         "id": "26538",
         "name": "Allahabad Airport",
         "city": "Allahabad",
         "latitude_deg": "25.4401",
         "longitude_deg": "81.733902",
         "iso_country": "IN",
         "iso_region": "IN-UP",
         "gps_code": "VIAL",
         "iataCode": "IXD"
     },
     {
         "id": "26540",
         "name": "Sri Guru Ram Dass Jee International Airport",
         "city": "Amritsar",
         "latitude_deg": "31.70960045",
         "longitude_deg": "74.79730225",
         "iso_country": "IN",
         "iso_region": "IN-PB",
         "gps_code": "VIAR",
         "iataCode": "ATQ"
     },
     {
         "id": "26543",
         "name": "Nal Airport",
         "city": "Bikaner",
         "latitude_deg": "28.07060051",
         "longitude_deg": "73.2071991",
         "iso_country": "IN",
         "iso_region": "IN-RJ",
         "gps_code": "VIBK",
         "iataCode": "BKB"
     },
     {
         "id": "26545",
         "name": "Lal Bahadur Shastri Airport",
         "city": "Varanasi",
         "latitude_deg": "25.4524",
         "longitude_deg": "82.859299",
         "iso_country": "IN",
         "iso_region": "IN-UP",
         "gps_code": "VEBN",
         "iataCode": "VNS"
     },
     {
         "id": "26546",
         "name": "Kullu Manali Airport",
         "city": "Bhuntar Kullu",
         "latitude_deg": "31.87669945",
         "longitude_deg": "77.15440369",
         "iso_country": "IN",
         "iso_region": "IN-HP",
         "gps_code": "VIBR",
         "iataCode": "KUU"
     },
    
     {
         "id": "26550",
         "name": "Chandigarh Airport",
         "city": "Chandigarh",
         "latitude_deg": "30.67350006",
         "longitude_deg": "76.78849792",
         "iso_country": "IN",
         "iso_region": "IN-CH",
         "gps_code": "VICG",
         "iataCode": "IXC"
     },
     {
         "id": "26551",
         "name": "Kanpur Airport",
         "city": "Kanpur",
         "latitude_deg": "26.404301",
         "longitude_deg": "80.410103",
         "iso_country": "IN",
         "iso_region": "IN-UP",
         "gps_code": "VICX",
         "iataCode": "KNU"
     },
     {
         "id": "26554",
         "name": "Dehra Dun Airport",
         "city": "Dehradun Dun",
         "latitude_deg": "30.189699",
         "longitude_deg": "78.180298",
         "iso_country": "IN",
         "iso_region": "IN-UL",
         "gps_code": "VIDN",
         "iataCode": "DED"
     },
     {
         "id": "26555",
         "name": "Indira Gandhi International Airport",
         "city": "New Delhi",
         "latitude_deg": "28.5665",
         "longitude_deg": "77.103104",
         "iso_country": "IN",
         "iso_region": "IN-DL",
         "gps_code": "VIDP",
         "iataCode": "DEL"
     },
     {
         "id": "26557",
         "name": "Gaggal Airport",
         "city": "Dharamsala",
         "latitude_deg": "32.1651001",
         "longitude_deg": "76.26339722",
         "iso_country": "IN",
         "iso_region": "IN-HP",
         "gps_code": "VIGG",
         "iataCode": "DHM"
     },
     {
         "id": "26558",
         "name": "Gwalior Airport",
         "city": "Gwalior",
         "latitude_deg": "26.29330063",
         "longitude_deg": "78.22779846",
         "iso_country": "IN",
         "iso_region": "IN-MP",
         "gps_code": "VIGR",
         "iataCode": "GWL"
     },
     {
         "id": "26559",
         "name": "Hissar Airport",
         "city": "Hissar",
         "latitude_deg": "29.17939949",
         "longitude_deg": "75.75530243",
         "iso_country": "IN",
         "iso_region": "IN-HR",
         "gps_code": "VIHR",
         "iataCode": "HSS"
     },
     {
         "id": "26562",
         "name": "Jodhpur Airport",
         "city": "Jodhpur",
         "latitude_deg": "26.25110054",
         "longitude_deg": "73.04889679",
         "iso_country": "IN",
         "iso_region": "IN-RJ",
         "gps_code": "VIJO",
         "iataCode": "JDH"
     },
     {
         "id": "26563",
         "name": "Jaipur  International Airport",
         "city": "Jaipur",
         "latitude_deg": "26.8242",
         "longitude_deg": "75.812202",
         "iso_country": "IN",
         "iso_region": "IN-RJ",
         "gps_code": "VIJP",
         "iataCode": "JAI"
     },
     {
         "id": "26564",
         "name": "Jaisalmer Airport",
         "city": "Jaisalmer",
         "latitude_deg": "26.88870049",
         "longitude_deg": "70.86499786",
         "iso_country": "IN",
         "iso_region": "IN-RJ",
         "gps_code": "VIJR",
         "iataCode": "JSA"
     },
     {
         "id": "26565",
         "name": "Jammu Airport",
         "city": "Jammu",
         "latitude_deg": "32.68909836",
         "longitude_deg": "74.83740234",
         "iso_country": "IN",
         "iso_region": "IN-JK",
         "gps_code": "VIJU",
         "iataCode": "IXJ"
     },
     {
         "id": "26567",
         "name": "Kota Airport",
         "city": "Kota",
         "latitude_deg": "25.16020012",
         "longitude_deg": "75.84559631",
         "iso_country": "IN",
         "iso_region": "IN-RJ",
         "gps_code": "VIKO",
         "iataCode": "KTU"
     },
     {
         "id": "26568",
         "name": "Ludhiana Airport",
         "city": "Ludhiana",
         "latitude_deg": "30.85470009",
         "longitude_deg": "75.95259857",
         "iso_country": "IN",
         "iso_region": "IN-PB",
         "gps_code": "VILD",
         "iataCode": "LUH"
     },
     {
         "id": "26569",
         "name": "Leh Kushok Bakula Rimpochee Airport",
         "city": "Leh",
         "latitude_deg": "34.13589859",
         "longitude_deg": "77.54650116",
         "iso_country": "IN",
         "iso_region": "IN-JK",
         "gps_code": "VILH",
         "iataCode": "IXL"
     },
     {
         "id": "26570",
         "name": "Amausi International Airport",
         "city": "Lucknow",
         "latitude_deg": "26.76059914",
         "longitude_deg": "80.88929749",
         "iso_country": "IN",
         "iso_region": "IN-UP",
         "gps_code": "VILK",
         "iataCode": "LKO"
     },
     {
         "id": "26571",
         "name": "Pathankot Airport",
         "city": "Pathankot",
         "latitude_deg": "32.233611",
         "longitude_deg": "75.634444",
         "iso_country": "IN",
         "iso_region": "IN-PB",
         "gps_code": "VIPK",
         "iataCode": "IXP"
     },
     {
         "id": "26573",
         "name": "Pantnagar Airport",
         "city": "Pantnagar",
         "latitude_deg": "29.0334",
         "longitude_deg": "79.473701",
         "iso_country": "IN",
         "iso_region": "IN-UP",
         "gps_code": "VIPT",
         "iataCode": "PGH"
     },
     {
         "id": "26576",
         "name": "Simla Airport",
         "city": "Shimla",
         "latitude_deg": "31.0818",
         "longitude_deg": "77.068001",
         "iso_country": "IN",
         "iso_region": "IN-HP",
         "gps_code": "VISM",
         "iataCode": "SLV"
     },
     {
         "id": "26578",
         "name": "Sheikh ul Alam Airport",
         "city": "Srinagar",
         "latitude_deg": "33.98709869",
         "longitude_deg": "74.77420044",
         "iso_country": "IN",
         "iso_region": "IN-JK",
         "gps_code": "VISR",
         "iataCode": "SXR"
     },
     {
         "id": "26579",
         "name": "Satna Airport",
         "city": "Satna",
         "latitude_deg": "24.5623",
         "longitude_deg": "80.854897",
         "iso_country": "IN",
         "iso_region": "IN-MP",
         "gps_code": "VIST",
         "iataCode": "TNI"
     },

     {
         "id": "3342",
         "name": "Tuticorin Airport",
         "city": "Tuticorin",
         "latitude_deg": "8.724241",
         "longitude_deg": "78.025803",
         "iso_country": "IN",
         "iso_region": "IN-TN",
         "gps_code": "VOTK",
         "iataCode": "TCR"
     },
     {
         "id": "26602",
         "name": "Agatti Airport",
         "city": "Agatti Island",
         "latitude_deg": "10.82369995",
         "longitude_deg": "72.1760025",
         "iso_country": "IN",
         "iso_region": "IN-LD",
         "gps_code": "VOAT",
         "iataCode": "AGX"
     },
     {
         "id": "26604",
         "name": "Bellary Airport",
         "city": "Bellary",
         "latitude_deg": "15.16279984",
         "longitude_deg": "76.88279724",
         "iso_country": "IN",
         "iso_region": "IN-KA",
         "gps_code": "VOBI",
         "iataCode": "BEP"
     },
     {
         "id": "35145",
         "name": "Kempegowda International Airport",
         "city": "Bangalore",
         "latitude_deg": "13.1979",
         "longitude_deg": "77.706299",
         "iso_country": "IN",
         "iso_region": "IN-KA",
         "gps_code": "VOBL",
         "iataCode": "BLR"
     },
     {
         "id": "26606",
         "name": "Vijayawada Airport",
         "city": "Vijayawada",
         "latitude_deg": "16.53039932",
         "longitude_deg": "80.79679871",
         "iso_country": "IN",
         "iso_region": "IN-AP",
         "gps_code": "VOBZ",
         "iataCode": "VGA"
     },
     {
         "id": "26607",
         "name": "Coimbatore  International Airport",
         "city": "Coimbatore",
         "latitude_deg": "11.02999973",
         "longitude_deg": "77.04340363",
         "iso_country": "IN",
         "iso_region": "IN-TN",
         "gps_code": "VOCB",
         "iataCode": "CJB"
     },
     {
         "id": "26609",
         "name": "Cochin International Airport",
         "city": "Kochi",
         "latitude_deg": "10.152",
         "longitude_deg": "76.401901",
         "iso_country": "IN",
         "iso_region": "IN-KL",
         "gps_code": "VOCI",
         "iataCode": "COK"
     },
     {
         "id": "26610",
         "name": "Kozhikode International Airport",
         "city": "Kozhikode",
         "latitude_deg": "11.13679981",
         "longitude_deg": "75.95529938",
         "iso_country": "IN",
         "iso_region": "IN-KL",
         "gps_code": "VOCL",
         "iataCode": "CCJ"
     },
     {
         "id": "26611",
         "name": "Cuddapah Airport",
         "city": "Cuddapah",
         "latitude_deg": "14.51",
         "longitude_deg": "78.772778",
         "iso_country": "IN",
         "iso_region": "IN-AP",
         "gps_code": "VOCP",
         "iataCode": "CDP"
     },
     {
         "id": "26612",
         "name": "Car Nicobar Air Force Station",
         "city": "Car Nicobar",
         "latitude_deg": "9.152509689",
         "longitude_deg": "92.81960297",
         "iso_country": "IN",
         "iso_region": "IN-AN",
         "gps_code": "VOCX",
         "iataCode": "CBD"
     },
     {
         "id": "35141",
         "name": "Rajiv Gandhi International Airport",
         "city": "Hyderabad",
         "latitude_deg": "17.23131752",
         "longitude_deg": "78.42985535",
         "iso_country": "IN",
         "iso_region": "IN-TG",
         "gps_code": "VOHS",
         "iataCode": "HYD"
     },
     {
         "id": "26616",
         "name": "Madurai Airport",
         "city": "Madurai",
         "latitude_deg": "9.83450985",
         "longitude_deg": "78.09339905",
         "iso_country": "IN",
         "iso_region": "IN-TN",
         "gps_code": "VOMD",
         "iataCode": "IXM"
     },
     {
         "id": "26617",
         "name": "Mangalore  International Airport",
         "city": "Mangalore",
         "latitude_deg": "12.9612999",
         "longitude_deg": "74.89009857",
         "iso_country": "IN",
         "iso_region": "IN-KA",
         "gps_code": "VOML",
         "iataCode": "IXE"
     },
     {
         "id": "26618",
         "name": "Chennai International Airport",
         "city": "Chennai",
         "latitude_deg": "12.99000549",
         "longitude_deg": "80.16929626",
         "iso_country": "IN",
         "iso_region": "IN-TN",
         "gps_code": "VOMM",
         "iataCode": "MAA"
     },
     {
         "id": "31996",
         "name": "Mysore Airport",
         "city": "Mysore",
         "latitude_deg": "12.23",
         "longitude_deg": "76.655833",
         "iso_country": "IN",
         "iso_region": "IN-KA",
         "gps_code": "VOMY",
         "iataCode": "MYQ"
     },
     {
         "id": "26620",
         "name": "Vir Savarkar International Airport",
         "city": "Port Blair",
         "latitude_deg": "11.64120007",
         "longitude_deg": "92.72969818",
         "iso_country": "IN",
         "iso_region": "IN-AN",
         "gps_code": "VOPB",
         "iataCode": "IXZ"
     },
     {
         "id": "26621",
         "name": "Pondicherry Airport",
         "city": "Pondicherry",
         "latitude_deg": "11.968",
         "longitude_deg": "79.812",
         "iso_country": "IN",
         "iso_region": "IN-TN",
         "gps_code": "VOPC",
         "iataCode": "PNY"
     },
     {
         "id": "26622",
         "name": "Sri Sathya Sai Airport",
         "city": "Puttaparthi",
         "latitude_deg": "14.14929962",
         "longitude_deg": "77.79109955",
         "iso_country": "IN",
         "iso_region": "IN-AP",
         "gps_code": "VOPN",
         "iataCode": "PUT"
     },
     {
         "id": "313997",
         "name": "Basanth Nagar Airport",
         "city": "Ramagundam",
         "latitude_deg": "18.701",
         "longitude_deg": "79.3923",
         "iso_country": "IN",
         "iso_region": "IN-TG",
         "gps_code": "VORG",
         "iataCode": "RMD"
     },
     {
         "id": "26623",
         "name": "Rajahmundry Airport",
         "city": "Rajahmundry",
         "latitude_deg": "17.11039925",
         "longitude_deg": "81.81819916",
         "iso_country": "IN",
         "iso_region": "IN-AP",
         "gps_code": "VORY",
         "iataCode": "RJA"
     },
     {
         "id": "26624",
         "name": "Salem Airport",
         "city": "Salem",
         "latitude_deg": "11.7833004",
         "longitude_deg": "78.06559753",
         "iso_country": "IN",
         "iso_region": "IN-TN",
         "gps_code": "VOSM",
         "iataCode": "SXV"
     },
     {
         "id": "26626",
         "name": "Tanjore Air Force Base",
         "city": "Thanjavur",
         "latitude_deg": "10.72239971",
         "longitude_deg": "79.10160065",
         "iso_country": "IN",
         "iso_region": "IN-TN",
         "gps_code": "VOTJ",
         "iataCode": "TJV"
     },
     {
         "id": "26627",
         "name": "Tirupati Airport",
         "city": "Tirupati",
         "latitude_deg": "13.63249969",
         "longitude_deg": "79.54329681",
         "iso_country": "IN",
         "iso_region": "IN-AP",
         "gps_code": "VOTP",
         "iataCode": "TIR"
     },
     {
         "id": "26628",
         "name": "Tiruchirapally Civil Airport Airport",
         "city": "Trichy",
         "latitude_deg": "10.76539993",
         "longitude_deg": "78.70970154",
         "iso_country": "IN",
         "iso_region": "IN-TN",
         "gps_code": "VOTR",
         "iataCode": "TRZ"
     },
     {
         "id": "26629",
         "name": "Trivandrum International Airport",
         "city": "Trivandrum",
         "latitude_deg": "8.48211956",
         "longitude_deg": "76.92009735",
         "iso_country": "IN",
         "iso_region": "IN-KL",
         "gps_code": "VOTV",
         "iataCode": "TRV"
     },
     {
         "id": "32647",
         "name": "Warangal Airport",
         "city": "Warangal",
         "latitude_deg": "17.9144",
         "longitude_deg": "79.602203",
         "iso_country": "IN",
         "iso_region": "IN-TG",
         "gps_code": "VOWA",
         "iataCode": "WGC"
     }
 ]